[
  {
    "eventId": 1,
    "eventTitle": "Mount Fuji Retreat",
    "imageId": "events/fuji.png",
    "opportunityId": 1,
    "locationId": 1,
    "eventLocationId": 1,
    "locationName": "Mt.Fuji Camp & Glamp",
    "startDate": "2025-06-21T00:00:00",
    "endDate": "2025-06-21T12:00:00",
    "name": "Mt.Fuji Camp & Glamp",
    "addressLine1": "2533-1 Oishi",
    "city": "Yamanashi",
    "state": "Japan",
    "zip": "401-0305",
    "latitude": 35.53679643728625,
    "longitude": 138.74085199321922,
    "timeZone": "Asia/Tokyo",
    "timeZoneAbbreviation": "JST",
    "timeZoneOffset": 9,
    "notes": "Bring a fishing pole and live bait (preferably anchovies)."
  },
  {
    "eventId": 1,
    "imageId": "events/fuji.png",
    "opportunityId": 100,
    "eventTitle": "Mount Fuji Retreat",
    "locationId": 1,
    "eventLocationId": 1,
    "locationName": "Mt.Fuji Camp & Glamp",
    "startDate": "2025-07-21T00:00:00",
    "endDate": "2025-07-21T12:00:00",
    "name": "Mt.Fuji Camp & Glamp",
    "addressLine1": "2533-1 Oishi",
    "city": "Yamanashi",
    "state": "Japan",
    "zip": "401-0305",
    "latitude": 35.53679643728625,
    "longitude": 138.74085199321922,
    "timeZone": "Asia/Tokyo",
    "timeZoneAbbreviation": "JST",
    "timeZoneOffset": 9
  },
  {
    "eventId": 1,
    "imageId": "events/fuji.png",
    "eventTitle": "Mount Fuji Retreat",
    "opportunityId": 2,
    "locationId": 2,
    "eventLocationId": 2,
    "locationName": "Fujimibashi Mount Fuji Viewing Platform",
    "startDate": "2025-06-21T00:00:00",
    "endDate": "2025-06-21T12:00:00",
    "name": "Fujimibashi Mount Fuji Viewing Platform",
    "addressLine1": "Minamitsuru District",
    "city": "Kawaguchi",
    "state": "Japan",
    "zip": "401-0304",
    "latitude": 35.541875726481244,
    "longitude": 138.76978589528957,
    "timeZone": "Asia/Tokyo",
    "timeZoneAbbreviation": "JST",
    "timeZoneOffset": 9
  },
  {
    "eventId": 1,
    "imageId": "events/fuji.png",
    "eventTitle": "Mount Fuji Retreat",
    "opportunityId": 200,
    "locationId": 2,
    "eventLocationId": 2,
    "locationName": "Fujimibashi Mount Fuji Viewing Platform",
    "startDate": "2025-08-01T01:00:00",
    "endDate": "2025-08-01T12:00:00",
    "name": "Fujimibashi Mount Fuji Viewing Platform",
    "addressLine1": "Minamitsuru District",
    "city": "Kawaguchi",
    "state": "Japan",
    "zip": "401-0304",
    "latitude": 35.541875726481244,
    "longitude": 138.76978589528957,
    "timeZone": "Asia/Tokyo",
    "timeZoneAbbreviation": "JST",
    "timeZoneOffset": 9
  },
  {
    "eventId": 1,
    "imageId": "events/fuji.png",
    "eventTitle": "Mount Fuji Retreat",
    "opportunityId": 201,
    "locationId": 2,
    "eventLocationId": 2,
    "locationName": "Fujimibashi Mount Fuji Viewing Platform",
    "startDate": "2025-09-11T01:00:00",
    "endDate": "2025-09-11T12:00:00",
    "name": "Fujimibashi Mount Fuji Viewing Platform",
    "addressLine1": "Minamitsuru District",
    "city": "Kawaguchi",
    "state": "Japan",
    "zip": "401-0304",
    "latitude": 35.541875726481244,
    "longitude": 138.76978589528957,
    "timeZone": "Asia/Tokyo",
    "timeZoneAbbreviation": "JST",
    "timeZoneOffset": 9
  }
]
